{
  "communes": [
    {
      "nom": "Paris",
      "code": "75056",
      "latitude": 48.8566,
      "longitude": 2.3522,
      "population": 2148000
    },
    {
      "nom": "Lyon",
      "code": "69123",
      "latitude": 45.75,
      "longitude": 4.85,
      "population": 513275
    },
    {
      "nom": "Marseille",
      "code": "13055",
      "latitude": 43.2965,
      "longitude": 5.3698,
      "population": 861635
    },
    {
      "nom": "Toulouse",
      "code": "31555",
      "latitude": 43.6047,
      "longitude": 1.4442,
      "population": 479553
    },
    {
      "nom": "Nice",
      "code": "06088",
      "latitude": 43.7102,
      "longitude": 7.262,
      "population": 343629
    }
  ]
}
